~VERSION INFORMATION
 VERS.                  2.0   : CWLS LOG ASCII STANDARD - VERSION 2.0
 WRAP.                  NO    : ONE LINE PER DEPTH STEP
~WELL INFORMATION BLOCK
 STRT.FT              10180.0 : START DEPTH
 STOP.FT              10240.0 : STOP DEPTH
 STEP.FT                  0.5 : STEP
 NULL.                -999.25 : NULL VALUE
 COMP.       SOCAR            : COMPANY
 WELL.       ABSHERON-1       : WELL
 FLD.        ABSHERON         : FIELD
 LOC.        CASPIAN SEA      : LOCATION
 CNTY.       AZERBAIJAN       : COUNTRY
 DATE.       2024-03-15       : DATE
~CURVE INFORMATION BLOCK
 DEPT.FT                      : DEPTH
 GR  .GAPI                    : GAMMA RAY
 RESD.OHMM                    : DEEP RESISTIVITY
 NPHI.V/V                     : NEUTRON POROSITY
 RHOB.G/C3                    : BULK DENSITY
 DT  .US/F                    : SONIC TRANSIT TIME
~A  DEPT        GR        RESD      NPHI      RHOB      DT
10180.0    82.3    12.4    0.28    2.41    95.2
10180.5    79.1    13.8    0.27    2.43    94.1
10181.0    75.4    15.2    0.26    2.44    93.3
10181.5    71.2    18.7    0.25    2.46    92.0
10182.0    68.9    22.3    0.24    2.47    91.2
10182.5    65.3    28.4    0.23    2.48    90.5
10183.0    61.7    35.6    0.22    2.49    89.8
10183.5    58.2    45.2    0.21    2.50    89.1
10184.0    54.8    58.7    0.20    2.51    88.4
10184.5    51.3    72.4    0.19    2.52    87.7
10185.0    48.7    89.3    0.18    2.53    87.0
10185.5    45.2   112.5    0.17    2.54    86.3
10186.0    42.8   145.8    0.16    2.55    85.6
10186.5    40.3   189.4    0.15    2.56    84.9
10187.0    38.7   235.6    0.14    2.57    84.2
10187.5    36.2   312.8    0.13    2.58    83.5
10188.0    34.5   425.3    0.12    2.59    82.8
10188.5    32.1   589.7    0.11    2.60    82.1
10189.0    30.8   712.4    0.10    2.61    81.4
10189.5    29.3   845.2    0.10    2.62    80.7
10190.0    28.1   978.5    0.09    2.63    80.0
10190.5    27.4  1125.3    0.09    2.63    79.5
10191.0    26.8  1289.7    0.08    2.64    79.0
10191.5    26.2  1456.8    0.08    2.64    78.5
10192.0    25.7  1623.4    0.08    2.65    78.0
10192.5    25.3  1789.2    0.07    2.65    77.6
10193.0    24.9  1934.5    0.07    2.66    77.2
10193.5    24.6  2056.8    0.07    2.66    76.8
10194.0    24.3  2145.3    0.07    2.67    76.4
10194.5    24.1  2198.7    0.06    2.67    76.1
10195.0    24.0  2234.5    0.06    2.68    75.8
10195.5    24.2  2198.3    0.07    2.67    76.1
10196.0    24.5  2134.7    0.07    2.67    76.5
10196.5    25.1  1978.4    0.07    2.66    77.0
10197.0    25.8  1756.2    0.08    2.66    77.5
10197.5    26.7  1523.8    0.08    2.65    78.1
10198.0    27.9  1289.4    0.09    2.65    78.8
10198.5    29.4   978.6    0.09    2.64    79.6
10199.0    31.2   756.3    0.10    2.63    80.5
10199.5    33.8   589.7    0.11    2.62    81.5
10200.0    36.7   423.5    0.12    2.61    82.6
10200.5    40.2   312.8    0.13    2.60    83.8
10201.0    44.8   234.5    0.14    2.59    85.1
10201.5    49.7   178.3    0.15    2.58    86.4
10202.0    55.3   134.7    0.16    2.57    87.8
10202.5    61.8   102.4    0.18    2.56    89.3
10203.0    68.9    78.5    0.19    2.55    90.9
10203.5    75.2    58.3    0.21    2.54    92.6
10204.0    82.4    42.7    0.23    2.52    94.4
10204.5    89.7    32.1    0.25    2.50    96.3
10205.0    97.3    24.8    0.27    2.48    98.3
10205.5   105.2    19.3    0.29    2.46   100.4
10206.0   113.8    15.6    0.31    2.44   102.6
10206.5   122.7    12.8    0.33    2.42   104.9
10207.0   132.1    10.9    0.35    2.40   107.3
10207.5   141.8     9.4    0.37    2.38   109.8
10208.0   151.9     8.2    0.39    2.36   112.4
10208.5   162.3     7.3    0.41    2.34   115.1
10209.0   172.8     6.6    0.43    2.32   117.9
10209.5   183.4     6.0    0.45    2.30   120.8
10210.0   194.1     5.5    0.47    2.28   123.8
10210.5   195.2     5.4    0.48    2.27   124.5
10211.0   193.8     5.5    0.47    2.28   123.9
10211.5   189.4     5.7    0.46    2.29   122.8
10212.0   182.7     6.1    0.45    2.30   121.2
10212.5   174.3     6.7    0.43    2.32   119.1
10213.0   164.8     7.5    0.41    2.34   116.6
10213.5   154.2     8.6    0.39    2.36   113.8
10214.0   142.7    10.0    0.37    2.38   110.7
10214.5   130.3    11.8    0.35    2.40   107.4
10215.0   117.4    14.1    0.33    2.42   104.0
10215.5   104.2    17.0    0.31    2.44   100.5
10216.0    91.3    20.5    0.29    2.46    97.0
10216.5    78.9    24.8    0.27    2.48    93.6
10217.0    67.4    30.0    0.25    2.50    90.3
10217.5    57.2    36.3    0.23    2.52    87.3
10218.0    52.3    42.8    0.22    2.53    85.8
10218.5    48.9    52.3    0.20    2.55    84.1
10219.0    45.8   148.7    0.19    2.56    82.8
10219.5    43.2   312.5    0.18    2.57    81.7
10220.0    41.2   523.8    0.17    2.58    80.8
10220.5    39.7   712.4    0.16    2.59    80.0
10221.0    38.4   945.6    0.15    2.60    79.3
10221.5    37.4  1189.3    0.15    2.61    78.7
10222.0    36.6  1423.7    0.14    2.61    78.2
10222.5    35.9  1645.2    0.14    2.62    77.8
10223.0    35.4  1834.5    0.13    2.62    77.4
10223.5    35.0  1978.6    0.13    2.63    77.1
10224.0    34.7  2056.4    0.13    2.63    76.9
10224.5    34.5  2089.3    0.13    2.63    76.7
10225.0    34.4  2098.7    0.12    2.64    76.6
10225.5    34.3  2089.4    0.13    2.63    76.7
10226.0    34.5  2056.8    0.13    2.63    76.9
10226.5    34.8  1998.5    0.13    2.63    77.1
10227.0    35.3  1912.4    0.13    2.62    77.4
10227.5    36.0  1789.6    0.14    2.62    77.8
10228.0    36.9  1634.5    0.14    2.62    78.3
10228.5    38.1  1456.2    0.15    2.61    78.9
10229.0    39.6  1267.8    0.15    2.61    79.6
10229.5    41.4  1078.5    0.16    2.60    80.4
10230.0    43.5   889.3    0.17    2.59    81.4
10230.5    46.2   712.5    0.18    2.58    82.6
10231.0    49.8   556.3    0.19    2.57    84.0
10231.5    54.7   423.8    0.21    2.56    85.6
10232.0    61.3   312.5    0.22    2.55    87.4
10232.5    69.8   234.7    0.24    2.53    89.5
10233.0    79.4   178.4    0.26    2.51    91.8
10233.5    90.7   134.2    0.28    2.49    94.3
10234.0   103.2   102.5    0.30    2.47    97.0
10234.5   117.1    78.3    0.32    2.45   100.0
10235.0   132.5    59.7    0.34    2.43   103.2
10235.5   149.3    45.6    0.36    2.41   106.6
10236.0   167.4    34.8    0.38    2.39   110.2
10236.5   186.8    26.5    0.40    2.37   114.0
10237.0   207.4    20.2    0.42    2.35   118.0
10237.5   229.2    15.4    0.44    2.33   122.2
10238.0   251.8    11.8    0.46    2.31   126.6
10238.5   274.3     9.0    0.48    2.29   131.2
10239.0   296.7     6.9    0.50    2.27   136.0
10239.5   318.2     5.3    0.52    2.25   141.0
10240.0   338.2     4.1    0.54    2.23   146.2
