~VERSION INFORMATION
 VERS.                  2.0   : CWLS LOG ASCII STANDARD - VERSION 2.0
 WRAP.                  NO    : ONE LINE PER DEPTH STEP
~WELL INFORMATION BLOCK
 STRT.FT               6200.0 : START DEPTH
 STOP.FT               6260.0 : STOP DEPTH
 STEP.FT                  0.5 : STEP
 NULL.                -999.25 : NULL VALUE
 COMP.       SOCAR            : COMPANY
 WELL.       GUNESHLI-7       : WELL
 FLD.        GUNESHLI         : FIELD
 LOC.        BAKU BAY         : LOCATION
 CNTY.       AZERBAIJAN       : COUNTRY
 DATE.       2024-01-10       : DATE
~CURVE INFORMATION BLOCK
 DEPT.FT                      : DEPTH
 GR  .GAPI                    : GAMMA RAY
 RESD.OHMM                    : DEEP RESISTIVITY
 NPHI.V/V                     : NEUTRON POROSITY
 RHOB.G/C3                    : BULK DENSITY
 DT  .US/F                    : SONIC TRANSIT TIME
~A  DEPT        GR        RESD      NPHI      RHOB      DT
6200.0   112.4     2.1    0.38    2.18   118.4
6200.5   108.7     2.2    0.37    2.19   117.2
6201.0   105.1     2.3    0.36    2.20   116.1
6201.5   101.6     2.4    0.35    2.21   115.0
6202.0    98.2     2.5    0.35    2.22   113.9
6202.5    94.9     2.6    0.34    2.23   112.9
6203.0    91.7     2.7    0.33    2.24   111.9
6203.5    88.6     2.8    0.32    2.25   110.9
6204.0    85.6     2.9    0.32    2.26   110.0
6204.5    82.8     3.1    0.31    2.27   109.1
6205.0    80.1     3.2    0.30    2.28   108.2
6205.5    77.5     3.4    0.30    2.29   107.4
6206.0    75.1     3.5    0.29    2.30   106.6
6206.5    72.8     3.7    0.28    2.31   105.8
6207.0    70.7     3.9    0.28    2.32   105.1
6207.5    68.7     4.1    0.27    2.33   104.4
6208.0    66.9     4.4    0.27    2.34   103.7
6208.5    65.3     4.6    0.26    2.35   103.1
6209.0    63.8     4.9    0.26    2.36   102.5
6209.5    62.5     5.2    0.25    2.37   101.9
6210.0    61.4     5.5    0.25    2.38   101.4
6210.5    60.5     5.9    0.24    2.38   100.9
6211.0    59.7     6.3    0.24    2.39   100.4
6211.5    59.2     6.7    0.24    2.40    99.9
6212.0    58.8     7.2    0.23    2.40    99.5
6212.5    58.7     7.7    0.23    2.41    99.1
6213.0    58.8     8.3    0.23    2.41    98.7
6213.5    59.1     8.9    0.22    2.42    98.4
6214.0    59.7     9.5    0.22    2.42    98.1
6214.5    60.5    10.2    0.22    2.43    97.8
6215.0    61.6    10.9    0.22    2.43    97.6
6215.5    62.9    11.6    0.21    2.44    97.4
6216.0    64.5    12.4    0.21    2.44    97.2
6216.5    66.3    13.2    0.21    2.45    97.1
6217.0    68.4    14.0    0.21    2.45    97.0
6217.5    70.8    14.9    0.21    2.46    96.9
6218.0    73.5    15.8    0.20    2.46    96.9
6218.5    76.5    16.8    0.20    2.47    96.9
6219.0    79.8    17.8    0.20    2.47    96.9
6219.5    83.4    18.8    0.20    2.48    97.0
6220.0    87.3    19.9    0.20    2.48    97.1
6220.5    91.5    21.0    0.20    2.48    97.3
6221.0    96.1    22.1    0.20    2.49    97.5
6221.5   101.0    23.2    0.20    2.49    97.7
6222.0   106.3    24.3    0.20    2.50    98.0
6222.5   111.9    25.5    0.20    2.50    98.3
6223.0   117.9    26.7    0.20    2.51    98.7
6223.5   124.2    27.9    0.21    2.51    99.1
6224.0   130.9    29.1    0.21    2.52    99.5
6224.5   137.9    30.3    0.21    2.52   100.0
6225.0   145.3    31.5    0.21    2.53   100.5
6225.5   144.8    31.4    0.21    2.53   100.4
6226.0   143.4    31.1    0.21    2.52   100.2
6226.5   141.1    30.6    0.21    2.52   100.0
6227.0   137.9    29.9    0.21    2.52    99.7
6227.5   133.9    29.1    0.20    2.51    99.4
6228.0   129.2    28.1    0.20    2.51    99.1
6228.5   123.9    27.1    0.20    2.50    98.7
6229.0   118.1    26.0    0.20    2.50    98.3
6229.5   111.9    24.9    0.20    2.49    97.9
6230.0   105.4    23.8    0.20    2.49    97.5
6230.5    98.7    22.7    0.20    2.48    97.1
6231.0    92.0    21.6    0.20    2.48    96.7
6231.5    85.4    20.5    0.20    2.47    96.3
6232.0    79.0    19.5    0.21    2.47    95.9
6232.5    72.9    18.5    0.21    2.46    95.6
6233.0    67.3    17.6    0.21    2.46    95.3
6233.5    62.2    16.7    0.21    2.45    95.0
6234.0    57.7    15.9    0.21    2.45    94.7
6234.5    54.0    15.2    0.22    2.44    94.5
6235.0    51.1    14.6    0.22    2.44    94.3
6235.5    49.1    14.0    0.22    2.43    94.2
6236.0    48.0    13.6    0.23    2.43    94.1
6236.5    47.9    13.2    0.23    2.42    94.0
6237.0    48.7    12.9    0.23    2.42    94.0
6237.5    50.5    12.7    0.24    2.41    94.1
6238.0    53.3    12.5    0.24    2.41    94.2
6238.5    57.1    12.4    0.25    2.40    94.4
6239.0    61.9    12.4    0.25    2.40    94.6
6239.5    67.7    12.4    0.26    2.39    94.9
6240.0    74.5    12.5    0.26    2.38    95.2
6240.5    82.2    12.7    0.27    2.38    95.6
6241.0    90.9    12.9    0.27    2.37    96.1
6241.5   100.6    13.2    0.28    2.36    96.6
6242.0   111.3    13.5    0.29    2.36    97.2
6242.5   122.9    13.9    0.29    2.35    97.9
6243.0   135.5    14.4    0.30    2.34    98.6
6243.5   149.0    14.9    0.31    2.33    99.4
6244.0   163.4    15.5    0.31    2.32   100.3
6244.5   178.5    16.2    0.32    2.31   101.2
6245.0   194.5    16.9    0.33    2.30   102.2
6245.5   194.0    16.9    0.33    2.30   102.1
6246.0   192.5    16.8    0.32    2.31   101.9
6246.5   190.1    16.7    0.32    2.31   101.7
6247.0   186.8    16.5    0.32    2.31   101.4
6247.5   182.7    16.3    0.31    2.32   101.0
6248.0   177.8    16.0    0.31    2.32   100.6
6248.5   172.3    15.7    0.31    2.33   100.2
6249.0   166.2    15.4    0.30    2.33    99.7
6249.5   159.6    15.1    0.30    2.34    99.2
6250.0   152.7    14.8    0.30    2.34    98.7
6250.5   145.5    14.5    0.29    2.35    98.2
6251.0   138.2    14.2    0.29    2.35    97.7
6251.5   130.8    13.9    0.29    2.36    97.2
6252.0   123.5    13.6    0.28    2.36    96.7
6252.5   116.3    13.4    0.28    2.37    96.2
6253.0   109.4    13.2    0.28    2.37    95.8
6253.5   102.8    13.0    0.27    2.38    95.4
6254.0    96.6    12.9    0.27    2.38    95.0
6254.5    90.9    12.7    0.27    2.39    94.7
6255.0    85.7    12.6    0.27    2.39    94.4
6255.5    81.2    12.6    0.26    2.40    94.2
6256.0    77.3    12.5    0.26    2.40    94.0
6256.5    74.1    12.5    0.26    2.41    93.8
6257.0    71.7    12.5    0.26    2.41    93.7
6257.5    70.1    12.5    0.25    2.42    93.6
6258.0    69.3    12.6    0.25    2.42    93.6
6258.5    69.3    12.6    0.25    2.43    93.6
6259.0    70.2    12.7    0.25    2.43    93.7
6259.5    72.0    12.8    0.25    2.44    93.9
6260.0    74.6    12.9    0.25    2.44    94.1
