~VERSION INFORMATION
 VERS.                  2.0   : CWLS LOG ASCII STANDARD - VERSION 2.0
 WRAP.                  NO    : ONE LINE PER DEPTH STEP
~WELL INFORMATION BLOCK
 STRT.FT               8500.0 : START DEPTH
 STOP.FT               8560.0 : STOP DEPTH
 STEP.FT                  0.5 : STEP
 NULL.                -999.25 : NULL VALUE
 COMP.       BP-SOCAR         : COMPANY
 WELL.       SHAH DENIZ-3     : WELL
 FLD.        SHAH DENIZ       : FIELD
 LOC.        SOUTH CASPIAN    : LOCATION
 CNTY.       AZERBAIJAN       : COUNTRY
 DATE.       2024-05-20       : DATE
~CURVE INFORMATION BLOCK
 DEPT.FT                      : DEPTH
 GR  .GAPI                    : GAMMA RAY
 RESD.OHMM                    : DEEP RESISTIVITY
 NPHI.V/V                     : NEUTRON POROSITY
 RHOB.G/C3                    : BULK DENSITY
 DT  .US/F                    : SONIC TRANSIT TIME
~A  DEPT        GR        RESD      NPHI      RHOB      DT
8500.0    95.2     8.3    0.32    2.35   102.4
8500.5    91.7     8.9    0.31    2.36   101.2
8501.0    88.3     9.6    0.30    2.37   100.1
8501.5    84.8    10.5    0.29    2.38    99.0
8502.0    81.2    11.5    0.28    2.39    97.9
8502.5    77.5    12.7    0.27    2.40    96.8
8503.0    73.8    14.1    0.26    2.41    95.7
8503.5    70.0    15.7    0.25    2.42    94.6
8504.0    66.2    17.6    0.24    2.43    93.5
8504.5    62.5    19.8    0.23    2.44    92.4
8505.0    58.8    22.4    0.22    2.45    91.3
8505.5    55.2    25.5    0.21    2.46    90.2
8506.0    51.7    29.1    0.20    2.47    89.1
8506.5    48.5    33.4    0.19    2.48    88.0
8507.0    45.6    38.5    0.18    2.49    86.9
8507.5    43.2    44.6    0.17    2.50    85.8
8508.0    41.2    52.0    0.16    2.51    84.7
8508.5    39.6    60.8    0.15    2.52    83.6
8509.0    38.4    71.5    0.15    2.53    82.5
8509.5    37.5    84.5    0.14    2.54    81.4
8510.0    36.9   100.2    0.13    2.55    80.3
8510.5    36.6   119.3    0.13    2.55    79.5
8511.0    36.5   142.5    0.12    2.56    78.8
8511.5    36.6   170.4    0.12    2.56    78.2
8512.0    36.9   204.2    0.12    2.57    77.7
8512.5    37.4   245.0    0.11    2.57    77.3
8513.0    38.1   294.2    0.11    2.58    76.9
8513.5    39.0   353.4    0.11    2.58    76.6
8514.0    40.2   424.3    0.10    2.59    76.4
8514.5    41.6   509.6    0.10    2.59    76.2
8515.0    43.3   612.3    0.10    2.60    76.1
8515.5    45.3   735.7    0.09    2.60    76.0
8516.0    47.6   883.5    0.09    2.60    76.0
8516.5    50.3  1061.4    0.09    2.61    76.1
8517.0    53.5  1274.3    0.09    2.61    76.2
8517.5    57.3  1529.8    0.08    2.61    76.4
8518.0    61.8  1836.7    0.08    2.62    76.6
8518.5    67.1  2205.3    0.08    2.62    76.9
8519.0    73.3  2646.4    0.08    2.62    77.3
8519.5    80.5  3176.1    0.07    2.63    77.8
8520.0    88.9  3812.7    0.07    2.63    78.4
8520.5    98.7  4576.9    0.07    2.63    79.1
8521.0   110.0  5492.8    0.07    2.64    79.9
8521.5   123.0  6592.7    0.06    2.64    80.8
8522.0   137.8  7914.8    0.06    2.64    81.8
8522.5   154.7  9503.2    0.06    2.65    82.9
8523.0   173.6 11405.2    0.06    2.65    84.1
8523.5   194.8 13688.5    0.05    2.65    85.4
8524.0   218.3 16434.0    0.05    2.65    86.8
8524.5   244.2 19721.0    0.05    2.66    88.3
8525.0   272.8 23666.0    0.05    2.66    89.9
8525.5   271.4 23456.0    0.05    2.66    89.8
8526.0   268.7 22834.0    0.05    2.66    89.5
8526.5   264.6 21812.0    0.05    2.66    89.1
8527.0   259.2 20412.0    0.06    2.66    88.6
8527.5   252.5 18664.0    0.06    2.65    87.9
8528.0   244.7 16607.0    0.06    2.65    87.1
8528.5   235.8 14289.0    0.06    2.65    86.2
8529.0   226.0 11769.0    0.06    2.65    85.2
8529.5   215.4  9121.0    0.07    2.64    84.1
8530.0   204.2  6430.0    0.07    2.64    82.9
8530.5   192.6  3800.0    0.07    2.64    81.6
8531.0   180.7  1356.0    0.08    2.63    80.3
8531.5   168.7   645.3    0.08    2.63    78.9
8532.0   156.9   389.5    0.09    2.62    77.5
8532.5   145.4   278.4    0.09    2.62    76.1
8533.0   134.4   213.8    0.10    2.61    74.8
8533.5   124.0   170.2    0.10    2.61    73.5
8534.0   114.3   138.4    0.11    2.60    72.3
8534.5   105.4   113.8    0.12    2.60    71.2
8535.0    97.4    94.5    0.12    2.59    70.2
8535.5    90.2    79.0    0.13    2.59    69.3
8536.0    84.0    66.5    0.14    2.58    68.5
8536.5    78.7    56.4    0.15    2.57    67.8
8537.0    74.3    48.2    0.15    2.57    67.2
8537.5    70.9    41.5    0.16    2.56    66.7
8538.0    68.3    35.9    0.17    2.55    66.3
8538.5    66.7    31.3    0.18    2.55    66.0
8539.0    65.9    27.5    0.18    2.54    65.8
8539.5    66.0    24.4    0.19    2.53    65.7
8540.0    67.0    21.8    0.20    2.52    65.7
8540.5    68.8    19.7    0.21    2.51    65.8
8541.0    71.4    17.9    0.22    2.50    66.0
8541.5    74.8    16.5    0.23    2.49    66.3
8542.0    79.0    15.3    0.24    2.48    66.7
8542.5    84.0    14.3    0.25    2.47    67.2
8543.0    89.8    13.5    0.26    2.46    67.8
8543.5    96.4    12.9    0.27    2.45    68.5
8544.0   103.8    12.4    0.28    2.44    69.3
8544.5   112.0    12.0    0.29    2.43    70.2
8545.0   121.0    11.7    0.30    2.42    71.2
8545.5   130.7    11.5    0.31    2.41    72.3
8546.0   141.2    11.3    0.32    2.40    73.5
8546.5   152.5    11.2    0.33    2.39    74.8
8547.0   164.5    11.1    0.34    2.38    76.2
8547.5   177.3    11.1    0.35    2.37    77.7
8548.0   190.7    11.1    0.36    2.36    79.3
8548.5   204.8    11.1    0.37    2.35    80.9
8549.0   219.5    11.2    0.38    2.34    82.7
8549.5   234.8    11.3    0.39    2.33    84.5
8550.0   250.5    11.4    0.40    2.32    86.4
8550.5   249.3    11.4    0.40    2.32    86.3
8551.0   246.8    11.5    0.40    2.32    86.0
8551.5   242.9    11.6    0.39    2.33    85.6
8552.0   237.8    11.8    0.39    2.33    85.0
8552.5   231.4    12.0    0.38    2.34    84.3
8553.0   223.8    12.3    0.38    2.34    83.5
8553.5   215.2    12.7    0.37    2.35    82.5
8554.0   205.7    13.2    0.37    2.35    81.5
8554.5   195.4    13.8    0.36    2.36    80.4
8555.0   184.5    14.5    0.35    2.37    79.3
8555.5   173.2    15.4    0.34    2.38    78.1
8556.0   161.7    16.4    0.33    2.39    76.9
8556.5   150.2    17.6    0.32    2.40    75.8
8557.0   138.8    19.0    0.31    2.41    74.7
8557.5   127.8    20.7    0.30    2.42    73.6
8558.0   117.3    22.6    0.29    2.43    72.6
8558.5   107.5    24.9    0.28    2.44    71.7
8559.0    98.6    27.5    0.27    2.45    70.9
8559.5    90.6    30.6    0.26    2.46    70.2
8560.0    83.7    34.2    0.25    2.47    69.6
